[
  {
    "id": 1,
    "category_id": 28,
    "name": "Hunar Training",
    "location": "Hashoo Hunar Training Center Karachi",
    "date": "2019-05-12",
    "closing_date": "2019-05-12",
    "offered_by": 4,
    "funded_by": 1,
    "category": {
      "id": 28,
      "name": "Reception Operation ",
      "parent_id": 27
    },
    "offerd_organization": {
      "id": 4,
      "organization": "Hashoo Foundation",
      "address": "Karachi",
      "sector": 2,
      "phone": "021352145"
    },
    "funded_organization": {
      "id": 1,
      "organization": "UNDP",
      "address": "Islamabad",
      "sector": 2,
      "phone": "051251544"
    }
  },
  {
    "id": 2,
    "category_id": 2,
    "name": "UNDP NM",
    "location": "Quetta",
    "date": "2019-10-09",
    "closing_date": "2019-10-09",
    "offered_by": 1,
    "funded_by": 1,
    "category": {
      "id": 2,
      "name": "Communication Skills",
      "parent_id": 1
    },
    "offerd_organization": {
      "id": 1,
      "organization": "UNDP",
      "address": "Islamabad",
      "sector": 2,
      "phone": "051251544"
    },
    "funded_organization": {
      "id": 1,
      "organization": "UNDP",
      "address": "Islamabad",
      "sector": 2,
      "phone": "051251544"
    }
  },
  {
    "id": 3,
    "category_id": 2,
    "name": "IBA UNDP",
    "location": "Quetta",
    "date": "2019-08-19",
    "closing_date": "2019-08-19",
    "offered_by": 3,
    "funded_by": 1,
    "category": {
      "id": 2,
      "name": "Communication Skills",
      "parent_id": 1
    },
    "offerd_organization": {
      "id": 3,
      "organization": "IBA",
      "address": "Karachi",
      "sector": 2,
      "phone": "021545554"
    },
    "funded_organization": {
      "id": 1,
      "organization": "UNDP",
      "address": "Islamabad",
      "sector": 2,
      "phone": "051251544"
    }
  },
  {
    "id": 4,
    "category_id": 80,
    "name": "Android Development",
    "location": "University of Balochistan",
    "date": "2020-01-20",
    "closing_date": "2020-01-20",
    "offered_by": 1,
    "funded_by": 1,
    "category": {
      "id": 80,
      "name": "Mobile Application Development",
      "parent_id": 62
    },
    "offerd_organization": {
      "id": 1,
      "organization": "UNDP",
      "address": "Islamabad",
      "sector": 2,
      "phone": "051251544"
    },
    "funded_organization": {
      "id": 1,
      "organization": "UNDP",
      "address": "Islamabad",
      "sector": 2,
      "phone": "051251544"
    }
  },
  {
    "id": 5,
    "category_id": 79,
    "name": "Web Development",
    "location": "University of Balochistan",
    "date": "2020-02-20",
    "closing_date": "2020-02-20",
    "offered_by": 1,
    "funded_by": 1,
    "category": {
      "id": 79,
      "name": "Web Application Development",
      "parent_id": 62
    },
    "offerd_organization": {
      "id": 1,
      "organization": "UNDP",
      "address": "Islamabad",
      "sector": 2,
      "phone": "051251544"
    },
    "funded_organization": {
      "id": 1,
      "organization": "UNDP",
      "address": "Islamabad",
      "sector": 2,
      "phone": "051251544"
    }
  },
  {
    "id": 6,
    "category_id": 62,
    "name": "Machine Learning",
    "location": "Buitems",
    "date": "2020-10-26",
    "closing_date": "2020-10-20",
    "offered_by": 7,
    "funded_by": 1,
    "category": {
      "id": 62,
      "name": "Computers / IT",
      "parent_id": 0
    },
    "offerd_organization": {
      "id": 7,
      "organization": "UoB",
      "address": "Quetta",
      "sector": 1,
      "phone": "081525527"
    },
    "funded_organization": {
      "id": 1,
      "organization": "UNDP",
      "address": "Islamabad",
      "sector": 2,
      "phone": "051251544"
    }
  },
  {
    "id": 7,
    "category_id": 79,
    "name": "Laravel Development",
    "location": "Balochisan University Quetta",
    "date": "2020-10-31",
    "closing_date": "2020-10-25",
    "offered_by": 3,
    "funded_by": 1,
    "category": {
      "id": 79,
      "name": "Web Application Development",
      "parent_id": 62
    },
    "offerd_organization": {
      "id": 3,
      "organization": "IBA",
      "address": "Karachi",
      "sector": 2,
      "phone": "021545554"
    },
    "funded_organization": {
      "id": 1,
      "organization": "UNDP",
      "address": "Islamabad",
      "sector": 2,
      "phone": "051251544"
    }
  },
  {
    "id": 8,
    "category_id": 80,
    "name": "Mobile Application Development",
    "location": "Buitems",
    "date": "2020-10-28",
    "closing_date": "2020-10-28",
    "offered_by": 6,
    "funded_by": 1,
    "category": {
      "id": 80,
      "name": "Mobile Application Development",
      "parent_id": 62
    },
    "offerd_organization": {
      "id": 6,
      "organization": "BUITEMS",
      "address": "Quetta",
      "sector": 3,
      "phone": "081525526"
    },
    "funded_organization": {
      "id": 1,
      "organization": "UNDP",
      "address": "Islamabad",
      "sector": 2,
      "phone": "051251544"
    }
  },
  {
    "id": 9,
    "category_id": 80,
    "name": "Flutter",
    "location": "Buitems",
    "date": "2020-11-30",
    "closing_date": "2020-11-15",
    "offered_by": 2,
    "funded_by": 1,
    "category": {
      "id": 80,
      "name": "Mobile Application Development",
      "parent_id": 62
    },
    "offerd_organization": {
      "id": 2,
      "organization": "Gwadar Institute of Technology",
      "address": "Gwadar",
      "sector": 2,
      "phone": "081545445"
    },
    "funded_organization": {
      "id": 1,
      "organization": "UNDP",
      "address": "Islamabad",
      "sector": 2,
      "phone": "051251544"
    }
  }
]